,city,city_lat,city_lon,city_temp,city_hum,city_cloud,city_wind,city_country,city_date
0,changji,44.02,87.32,42.8,41,0,2.24,CN,1604924806
1,ponta do sol,32.67,-17.1,69.8,60,40,10.29,PT,1604924806
2,provideniya,64.38,-173.3,32.18,96,100,11.39,RU,1604924807
3,fortuna,40.6,-124.16,32.0,76,1,8.05,US,1604924590
4,alyangula,-13.85,136.42,82.4,78,31,4.7,AU,1604924807
5,carnarvon,-24.87,113.63,66.2,93,90,26.4,AU,1604924808
6,port alfred,-33.59,26.89,62.2,75,100,20.11,ZA,1604924808
7,busselton,-33.65,115.33,54.0,69,43,17.09,AU,1604924808
8,korla,41.76,86.15,44.98,47,41,4.0,CN,1604924809
9,nyurba,63.28,118.33,8.28,94,100,7.87,RU,1604924809
10,rio gallegos,-51.62,-69.22,42.8,75,90,8.05,AR,1604924584
11,watsa,3.04,29.54,75.94,89,62,4.61,CD,1604924810
12,amantea,39.13,16.07,70.0,68,16,10.29,IT,1604924810
13,plettenberg bay,-34.05,23.37,62.56,50,64,12.8,ZA,1604924810
14,butaritari,3.07,172.79,81.48,71,0,11.34,KI,1604924811
15,aplahoue,6.93,1.68,92.89,44,61,3.24,BJ,1604924811
16,jackson,42.42,-122.83,26.01,85,1,5.82,US,1604924722
17,sitka,57.05,-135.33,44.6,93,90,3.36,US,1604924812
18,coffs harbour,-30.3,153.13,60.8,82,75,5.82,AU,1604924812
19,parintins,-2.63,-56.74,84.94,68,98,1.63,BR,1604924813
20,kapaa,22.08,-159.32,75.2,94,90,25.28,US,1604924813
21,karratha,-20.74,116.85,74.55,64,0,18.21,AU,1604924814
22,vila velha,-20.33,-40.29,82.4,69,75,12.75,BR,1604924814
23,tuktoyaktuk,69.45,-133.04,-2.07,91,90,13.58,CA,1604924814
24,saldanha,-33.01,17.94,64.4,39,0,11.41,ZA,1604924815
25,ushuaia,-54.8,-68.3,42.8,45,0,4.7,AR,1604924815
26,quincy,42.25,-71.0,53.6,58,0,11.41,US,1604924754
27,rikitea,-23.12,-134.97,72.97,77,45,15.73,PF,1604924816
28,charlestown,-32.95,151.67,60.01,75,0,5.53,AU,1604924816
29,saint anthony,45.02,-93.22,64.99,77,90,10.29,US,1604924817
30,georgetown,5.41,100.34,82.4,78,40,3.36,MY,1604924519
31,hithadhoo,-0.6,73.08,82.58,78,100,13.73,MV,1604924817
32,ergani,38.27,39.76,69.8,48,40,2.24,TR,1604924818
33,qaanaaq,77.48,-69.36,-7.64,72,0,6.55,GL,1604924818
34,aklavik,68.22,-135.01,5.0,77,100,17.22,CA,1604924819
35,faya,18.39,42.45,77.0,33,40,8.05,SA,1604924819
36,sorland,67.67,12.69,39.2,64,75,12.75,NO,1604924819
37,cape town,-33.93,18.42,66.0,39,20,13.87,ZA,1604924779
38,bonavista,48.65,-53.11,33.01,86,92,6.93,CA,1604924774
39,ayr,55.46,-4.63,55.4,87,20,3.36,GB,1604924820
40,kattivakkam,13.22,80.32,82.4,65,40,14.99,IN,1604924820
41,requena,39.49,-1.1,64.99,60,62,3.0,ES,1604924821
42,vila franca do campo,37.72,-25.43,66.2,55,20,12.75,PT,1604924821
43,porbandar,21.64,69.61,84.6,40,0,11.83,IN,1604924821
44,quatre cocos,-20.21,57.76,78.8,65,75,13.87,MU,1604924822
45,basco,20.45,121.97,77.99,85,100,33.67,PH,1604924822
46,hilo,19.73,-155.09,69.8,60,1,6.93,US,1604924751
47,thompson,55.74,-97.86,10.4,92,90,13.87,CA,1604924823
48,barrow,71.29,-156.79,14.0,78,90,18.34,US,1604924823
49,isla mujeres,21.23,-86.73,73.4,100,75,6.93,MX,1604924823
50,katsuura,35.13,140.3,55.99,47,40,11.41,JP,1604924824
51,kavieng,-2.57,150.8,82.87,72,36,4.09,PG,1604924824
52,vaini,-21.2,-175.2,69.8,94,20,3.36,TO,1604924825
53,wanning,18.8,110.4,72.28,73,100,17.96,CN,1604924825
54,manggar,-2.88,108.27,81.75,74,85,2.86,ID,1604924825
55,pafos,34.77,32.42,77.0,53,20,11.41,CY,1604924722
56,mataura,-46.19,168.86,48.0,88,19,3.0,NZ,1604924826
57,aketi,2.74,23.78,91.13,46,76,5.79,CD,1604924826
58,hutchinson,38.06,-97.93,63.0,82,90,23.04,US,1604924601
59,faanui,-16.48,-151.75,77.88,82,98,16.73,PF,1604924827
60,bubaque,11.28,-15.83,82.9,77,11,8.37,GW,1604924827
61,whitianga,-36.83,175.7,55.0,92,48,4.0,NZ,1604924828
62,lagoa,39.05,-27.98,62.94,73,59,16.98,PT,1604924828
63,tonj,7.27,28.68,84.02,48,82,1.36,SS,1604924828
64,necochea,-38.55,-58.74,63.63,69,95,9.1,AR,1604924829
65,marsa matruh,31.35,27.25,68.0,72,75,9.17,EG,1604924829
66,atuona,-9.8,-139.03,77.14,71,25,10.04,PF,1604924830
67,marzuq,14.4,46.47,85.06,14,0,11.03,YE,1604924830
68,punta arenas,-53.15,-70.92,39.2,86,90,14.99,CL,1604924830
69,tiksi,71.69,128.87,-8.73,85,4,5.1,RU,1604924831
70,iqaluit,63.75,-68.51,14.0,78,90,16.11,CA,1604924831
71,khandyga,62.67,135.6,-17.28,87,0,2.55,RU,1604924831
72,talcahuano,-36.72,-73.12,53.6,87,20,8.05,CL,1604924832
73,bluff,-46.6,168.33,48.0,88,0,3.0,NZ,1604924832
74,mahebourg,-20.41,57.7,78.8,65,75,13.87,MU,1604924833
75,ribeira grande,38.52,-28.7,66.2,72,75,21.92,PT,1604924833
76,chuy,-33.7,-53.46,67.05,66,98,9.75,UY,1604924833
77,omsukchan,62.53,155.8,-5.58,87,100,4.83,RU,1604924834
78,jamestown,42.1,-79.24,50.0,66,1,5.82,US,1604924793
79,chokurdakh,70.63,147.92,-13.9,90,99,2.95,RU,1604924834
80,san jose,37.34,-121.89,42.01,86,1,3.36,US,1604924756
81,kungurtug,50.6,97.52,27.28,89,21,3.6,RU,1604924835
82,punuare,14.73,-85.97,68.0,100,75,2.51,HN,1604924836
83,mar del plata,-38.0,-57.56,64.4,82,90,8.05,AR,1604924677
84,geraldton,-28.77,114.6,62.6,48,75,23.04,AU,1604924836
85,san quintin,30.48,-115.95,58.41,64,10,14.5,MX,1604924837
86,jalu,29.03,21.55,74.64,37,0,11.56,LY,1604924837
87,roma,43.21,-75.46,37.4,86,1,3.36,US,1604924735
88,preeceville,51.95,-102.67,9.86,94,98,11.3,CA,1604924838
89,parana,-31.73,-60.52,62.65,93,100,9.28,AR,1604924838
90,taoudenni,22.68,-3.98,93.11,11,47,5.61,ML,1604924838
91,turukhansk,65.82,87.98,25.41,98,100,20.0,RU,1604924839
92,henderson,36.04,-114.98,42.01,64,75,3.36,US,1604924560
93,alofi,-19.06,-169.92,73.4,100,75,8.05,NU,1604924840
94,puerto ayora,-0.74,-90.35,68.0,90,93,7.0,EC,1604924840
95,new norfolk,-42.78,147.06,55.0,49,39,1.1,AU,1604924840
96,hermanus,-34.42,19.23,64.0,51,39,7.0,ZA,1604924841
97,novyy urengoy,66.08,76.63,10.81,96,97,7.56,RU,1604924841
98,aykhal,66.0,111.5,6.8,92,90,8.95,RU,1604924841
99,yellowknife,62.46,-114.35,28.4,86,75,12.75,CA,1604924594
100,la ligua,-32.45,-71.23,53.6,93,90,4.7,CL,1604924842
101,torbay,47.67,-52.73,35.01,74,90,10.29,CA,1604924842
102,auki,-8.77,160.7,79.09,81,88,2.06,SB,1604924843
103,hasaki,35.73,140.83,51.8,71,75,5.82,JP,1604924843
104,pochutla,15.74,-96.47,75.0,84,0,3.18,MX,1604924843
105,djibo,14.1,-1.63,93.16,10,29,12.62,BF,1604924844
106,bodden town,19.28,-81.25,80.6,88,75,14.99,KY,1604924844
107,avarua,-21.21,-159.78,71.6,94,99,10.29,CK,1604924844
108,yulara,-25.24,130.99,87.8,20,80,4.7,AU,1604924845
109,donskoye,45.46,41.97,53.51,82,8,8.95,RU,1604924845
110,dikson,73.51,80.55,3.65,94,100,10.31,RU,1604924845
111,severo-kurilsk,50.68,156.12,37.47,90,100,18.63,RU,1604924846
112,airai,-8.93,125.41,63.57,100,100,2.17,TL,1604924846
113,klaksvik,62.23,-6.59,50.0,100,100,9.17,FO,1604924847
114,waddan,29.16,16.14,71.53,39,6,11.03,LY,1604924847
115,khatanga,71.97,102.5,16.74,96,100,19.42,RU,1604924847
116,khorramshahr,30.44,48.17,89.6,49,40,4.7,IR,1604924848
117,albany,42.6,-73.97,46.0,100,20,1.74,US,1604924797
118,pisco,-13.7,-76.22,62.6,88,90,2.24,PE,1604924674
119,saint-leu,-21.15,55.28,78.8,74,75,24.16,RE,1604924848
120,broken hill,-31.95,141.43,82.4,23,75,9.17,AU,1604924674
121,chumikan,54.72,135.31,4.48,89,12,14.85,RU,1604924849
122,trelew,-43.25,-65.31,75.15,46,60,6.31,AR,1604924826
123,qaqortoq,60.72,-46.03,28.4,86,75,2.84,GL,1604924850
124,nanortalik,60.14,-45.24,25.63,96,100,23.58,GL,1604924850
125,camacha,33.08,-16.33,68.0,60,20,8.05,PT,1604924850
126,ilulissat,69.22,-51.1,15.8,66,75,5.82,GL,1604924851
127,thinadhoo,0.53,72.93,82.13,77,100,10.94,MV,1604924851
128,komsomolskiy,40.43,71.72,48.2,70,40,6.93,UZ,1604924851
129,hobart,-42.88,147.33,62.6,59,0,5.82,AU,1604924641
130,castro,-24.79,-50.01,68.34,71,82,7.49,BR,1604924852
131,esil,51.96,66.4,38.77,79,92,8.75,KZ,1604924852
132,trairi,-3.28,-39.27,86.88,58,26,14.83,BR,1604924640
133,bambous virieux,-20.34,57.76,78.8,65,75,13.87,MU,1604924853
134,la libertad,-2.23,-80.9,69.8,83,75,11.41,EC,1604924853
135,taksimo,56.34,114.88,12.88,93,98,1.59,RU,1604924854
136,babu,24.42,111.52,61.27,51,0,4.45,CN,1604924854
137,eyl,7.98,49.82,84.97,58,0,24.2,SO,1604924854
138,esso,55.93,158.7,6.85,80,11,2.64,RU,1604924855
139,cherskiy,68.75,161.3,3.11,94,99,4.07,RU,1604924855
140,buin,-33.73,-70.75,71.01,76,0,1.86,CL,1604924855
141,saint-francois,46.42,3.91,64.4,63,0,2.24,FR,1604924856
142,nizhniy tsasuchey,50.52,115.13,28.96,96,9,3.38,RU,1604924856
143,la palma,33.85,-118.05,48.2,75,1,4.7,US,1604924856
144,nikolskoye,59.7,30.79,42.01,93,75,11.18,RU,1604924857
145,caravelas,-17.71,-39.25,81.91,65,99,7.99,BR,1604924857
146,hambantota,6.12,81.12,78.8,100,75,3.36,LK,1604924857
147,henties bay,-22.12,14.28,64.0,72,75,11.99,NA,1604924858
148,arraial do cabo,-22.97,-42.03,77.0,94,90,6.93,BR,1604924858
149,lagos,6.58,3.75,86.0,74,75,9.17,NG,1604924859
150,vestmannaeyjar,63.44,-20.27,44.6,93,90,32.21,IS,1604924859
151,bakhmach,51.18,32.76,48.58,76,38,6.08,UA,1604924859
152,egvekinot,66.32,-179.17,16.43,97,81,13.96,RU,1604924860
153,bredasdorp,-34.53,20.04,66.2,42,2,12.75,ZA,1604924860
154,thetford mines,46.09,-71.3,42.8,87,9,2.24,CA,1604924860
155,victoria,22.29,114.16,73.99,73,97,3.0,HK,1604924825
156,mafra,-26.11,-49.81,59.0,95,100,1.01,BR,1604924861
157,saryozek,44.36,77.98,37.81,74,57,5.97,KZ,1604924663
158,longyearbyen,78.22,15.64,23.0,62,20,4.7,SJ,1604924862
159,lishu,43.3,124.33,24.46,75,0,4.18,CN,1604924862
160,tasiilaq,65.61,-37.64,34.14,94,100,41.79,GL,1604924862
161,klyuchi,52.27,79.17,36.14,84,88,22.93,RU,1604924863
162,grasse,43.67,6.92,68.0,72,20,5.82,FR,1604924863
163,labrea,-7.26,-64.8,78.37,83,100,3.38,BR,1604924863
164,vanimo,-2.67,141.3,80.94,78,88,4.76,PG,1604924864
165,sibu,2.3,111.82,77.0,100,40,6.93,MY,1604924864
166,manokwari,-0.87,134.08,81.52,76,96,3.87,ID,1604924864
167,zhezkazgan,47.8,67.71,41.0,56,75,35.79,KZ,1604924865
168,yar-sale,66.83,70.83,14.29,96,100,8.43,RU,1604924865
169,puerto asis,0.51,-76.5,71.89,89,43,1.61,CO,1604924865
170,lingyuan,41.24,119.4,38.08,67,0,1.63,CN,1604924866
171,auburndale,28.07,-81.79,77.0,83,90,22.35,US,1604924606
172,cabadiangan,9.75,122.47,77.9,80,14,1.28,PH,1604924866
173,meulaboh,4.14,96.13,79.63,82,100,0.45,ID,1604924867
174,talnakh,69.49,88.4,21.2,92,40,11.18,RU,1604924867
175,konstantinovo,54.66,29.27,41.13,67,40,6.38,BY,1604924867
176,grindavik,63.84,-22.43,42.8,93,90,18.34,IS,1604924868
177,cayenne,4.93,-52.33,84.2,74,40,4.7,GF,1604924868
178,weston,26.1,-80.4,80.01,100,90,18.34,US,1604924678
179,half moon bay,37.46,-122.43,42.8,59,1,8.21,US,1604924619
180,puerto narino,-3.77,-70.38,75.2,100,75,2.48,CO,1604924869
181,cidreira,-30.18,-50.21,69.64,84,98,16.62,BR,1604924869
182,lompoc,34.64,-120.46,39.2,71,1,5.26,US,1604924869
183,ossora,59.24,163.07,19.89,86,18,6.44,RU,1604924870
184,te anau,-45.42,167.72,43.57,89,3,2.95,NZ,1604924870
185,taltal,-25.4,-70.48,63.5,60,41,3.31,CL,1604924586
186,fairbanks,64.84,-147.72,28.4,86,90,3.36,US,1604924584
187,danesti,46.52,25.75,57.0,71,88,1.54,RO,1604924871
188,port hawkesbury,45.62,-61.35,48.0,93,90,9.17,CA,1604924871
189,bilma,18.69,12.92,83.1,22,0,7.2,NE,1604924872
190,nebbi,2.48,31.09,77.9,67,32,3.91,UG,1604924872
191,riyadh,24.69,46.72,87.8,23,0,9.17,SA,1604924749
192,port hardy,50.7,-127.42,42.8,72,75,3.36,CA,1604924873
193,espinosa,-14.93,-42.82,77.34,64,73,6.31,BR,1604924873
194,plainfield,40.62,-74.42,48.2,81,1,2.57,US,1604924642
195,takoradi,4.88,-1.76,84.04,69,85,8.14,GH,1604924874
196,vostok,46.49,135.88,8.06,95,99,5.86,RU,1604924874
197,mount isa,-20.73,139.5,84.2,16,0,2.24,AU,1604924875
198,cape canaveral,28.41,-80.6,77.0,88,20,25.28,US,1604924875
199,biltine,14.53,20.92,92.84,17,24,4.63,TD,1604924875
200,tual,-5.67,132.75,84.65,76,89,14.14,ID,1604924876
201,shingu,33.73,135.98,49.93,69,0,6.29,JP,1604924876
202,tsabong,-26.02,22.4,87.04,25,50,5.06,BW,1604924876
203,somerset east,-32.72,25.59,53.38,75,100,13.78,ZA,1604924877
204,bundaberg,-24.85,152.35,68.0,63,81,9.17,AU,1604924877
205,hervey bay,-25.3,152.85,68.0,67,99,3.0,AU,1604924877
206,hamilton,39.18,-84.53,57.2,71,1,5.82,US,1604924878
207,murgab,37.5,61.97,59.0,44,0,9.17,TM,1604924878
208,beringovskiy,63.05,179.32,33.6,92,100,23.85,RU,1604924879
209,asbestovskiy,57.76,61.4,32.67,90,96,11.21,RU,1604924879
210,vila,42.03,-8.16,57.0,89,71,6.44,PT,1604924879
211,milos,36.75,24.43,68.0,64,20,21.92,GR,1604924880
212,lorengau,-2.02,147.27,81.79,74,98,3.0,PG,1604924880
213,banepa,27.63,85.52,64.4,55,20,3.36,NP,1604924811
214,cerignola,41.26,15.9,68.0,60,5,17.22,IT,1604924880
215,savinskiy,62.93,40.14,32.54,94,100,7.7,RU,1604924881
216,uribia,11.71,-72.27,79.72,78,26,1.54,CO,1604924881
217,hobyo,5.35,48.53,83.35,74,43,22.68,SO,1604924882
218,east london,-33.02,27.91,62.6,67,20,25.28,ZA,1604924882
219,port lincoln,-34.73,135.87,73.74,42,0,20.4,AU,1604924882
220,am timan,11.03,20.28,98.62,20,14,1.86,TD,1604924883
221,baturite,-4.33,-38.88,83.48,59,52,8.55,BR,1604924829
222,skagen,57.72,10.58,48.2,93,90,9.17,DK,1604924884
223,sao joao da barra,-21.64,-41.05,77.0,88,90,3.33,BR,1604924619
224,lebu,-37.62,-73.65,53.74,86,66,14.16,CL,1604924884
225,doka,13.52,35.77,93.74,18,48,7.34,SD,1604924885
226,phuket,8.0,98.25,82.99,83,20,5.82,TH,1604924874
227,palmer,42.16,-72.33,44.01,81,1,1.66,US,1604924885
228,saskylakh,71.92,114.08,2.93,89,97,26.44,RU,1604924886
229,darnah,32.77,22.64,67.89,65,24,5.32,LY,1604924886
230,the valley,18.22,-63.06,84.2,83,20,9.17,AI,1604924668
231,morwell,-38.23,146.4,55.99,87,31,2.44,AU,1604924887
232,amethi,26.15,81.82,75.36,27,0,3.51,IN,1604924887
233,paamiut,61.99,-49.67,21.31,89,100,33.15,GL,1604924888
234,leningradskiy,69.38,178.42,18.46,93,97,7.07,RU,1604924888
235,tateyama,34.98,139.87,55.99,26,51,5.99,JP,1604924888
236,penedo,-10.29,-36.59,83.48,67,50,12.53,BR,1604924889
237,port elizabeth,-33.92,25.57,59.0,87,40,19.46,ZA,1604924889
238,balikpapan,-1.27,116.83,86.0,74,20,5.82,ID,1604924889
239,kalmunai,7.42,81.82,82.27,78,13,9.19,LK,1604924890
240,kulhudhuffushi,6.62,73.07,84.52,73,77,11.01,MV,1604924890
241,rocha,-34.48,-54.33,66.33,71,100,8.59,UY,1604924890
242,kruisfontein,-34.0,24.73,57.0,80,98,5.01,ZA,1604924891
243,chapeltown,53.47,-1.47,53.01,99,99,5.61,GB,1604924892
244,cuenca,-2.88,-78.98,48.2,100,100,2.24,EC,1604924892
245,nantucket,41.28,-70.1,51.8,93,1,5.82,US,1604924823
246,dickinson,29.46,-95.05,72.0,94,90,6.93,US,1604924738
247,mao,39.89,4.27,68.0,82,20,4.7,ES,1604924893
248,kilindoni,-7.91,39.67,81.63,75,45,13.85,TZ,1604924893
249,narsaq,60.92,-46.05,28.4,86,75,0.6,GL,1604924894
250,port blair,11.67,92.75,81.61,79,0,10.18,IN,1604924894
251,nouadhibou,20.93,-17.03,78.8,47,0,20.8,MR,1604924894
252,vilyuysk,63.76,121.62,-5.44,89,16,7.34,RU,1604924895
253,sao filipe,14.9,-24.5,82.87,66,79,9.33,CV,1604924895
254,pingzhuang,42.04,119.29,36.46,72,29,0.74,CN,1604924895
255,saint-philippe,-21.36,55.77,78.8,74,75,24.16,RE,1604924896
256,tezu,27.92,96.17,70.52,50,0,3.96,IN,1604924896
257,vardo,70.37,31.11,33.8,80,40,25.28,NO,1604924896
258,povenets,62.85,34.83,36.39,93,92,16.67,RU,1604924897
259,bay-khaak,51.17,94.5,32.54,87,81,3.29,RU,1604924897
260,viedma,-40.81,-63.0,64.0,86,100,1.99,AR,1604924897
261,kamina,-8.74,24.99,85.51,53,38,3.31,CD,1604924898
262,mocuba,-16.84,36.99,107.98,13,52,7.65,MZ,1604924898
263,maltahohe,-24.83,16.98,82.29,20,44,8.1,NA,1604924899
264,mabamba,-3.6,30.5,79.47,59,85,6.13,TZ,1604924899
265,ambulu,-8.35,113.61,79.27,81,93,4.47,ID,1604924899
266,clyde river,70.47,-68.59,-2.2,77,1,17.22,CA,1604924900
267,fort nelson,58.81,-122.7,14.0,85,90,2.24,CA,1604924900
268,melong,5.12,9.96,80.4,67,24,1.21,CM,1604924900
269,port-gentil,-0.72,8.78,84.2,70,40,10.29,GA,1604924901
270,coihaique,-45.58,-72.07,59.0,62,0,6.93,CL,1604924901
271,zyryanka,65.75,150.85,-6.47,91,100,8.08,RU,1604924901
272,pemangkat,1.17,108.97,76.6,88,100,9.28,ID,1604924902
273,ozernovskiy,51.5,156.52,35.13,84,98,11.39,RU,1604924902
274,keti bandar,24.14,67.45,83.48,43,0,11.65,PK,1604924902
275,perigueux,45.18,0.72,63.0,81,58,5.06,FR,1604924731
276,batagay-alyta,67.8,130.41,-16.89,85,0,2.24,RU,1604924903
277,berlevag,70.86,29.09,37.4,69,40,34.45,NO,1604924903
278,hualmay,-11.1,-77.61,61.92,80,86,5.19,PE,1604924904
279,tuatapere,-46.13,167.68,48.0,88,5,3.0,NZ,1604924904
280,bengkulu,-3.8,102.27,78.33,83,100,1.66,ID,1604924905
281,lodwar,3.12,35.6,96.06,26,44,19.19,KE,1604924905
282,baghdad,33.34,44.4,71.6,60,90,19.46,IQ,1604924727
283,zaraza,9.35,-65.32,77.32,92,54,3.47,VE,1604924906
284,kislang,46.96,18.39,52.0,62,0,3.0,HU,1604924906
285,siena,43.22,11.4,69.01,60,6,1.01,IT,1604924906
286,maues,-3.38,-57.72,81.37,86,98,0.63,BR,1604924818
287,tokonou,9.65,-9.78,91.51,35,25,1.66,GN,1604924907
288,januaria,-15.48,-44.37,81.81,64,88,4.76,BR,1604924907
289,launceston,-41.45,147.17,54.0,87,48,9.17,AU,1604924908
290,maumere,-8.62,122.21,82.81,71,98,7.34,ID,1604924908
291,ruidoso,33.33,-105.67,50.0,57,75,19.46,US,1604924908
292,gamba,-2.65,10.0,76.37,89,100,10.02,GA,1604924909
293,kasongo-lunda,-6.47,16.82,86.4,64,100,4.63,CD,1604924909
294,uddevalla,58.35,11.94,50.0,76,75,5.82,SE,1604924909
295,bethel,41.37,-73.41,46.4,93,1,2.44,US,1604924626
296,neiafu,-18.65,-173.98,77.81,79,19,12.95,TO,1604924910
297,amapa,1.0,-52.0,81.81,65,68,4.52,BR,1604924910
298,namibe,-15.2,12.15,78.8,69,20,18.34,AO,1604924911
299,morondava,-20.28,44.28,84.6,66,98,16.11,MG,1604924911
300,tigil,57.8,158.67,20.08,91,20,2.13,RU,1604924912
301,roald,62.58,6.13,48.2,81,0,8.05,NO,1604924912
302,wairoa,-39.03,177.37,50.0,98,93,4.03,NZ,1604924912
303,farafangana,-22.82,47.83,79.05,64,3,13.38,MG,1604924913
304,songea,-10.68,35.65,86.0,33,20,12.75,TZ,1604924913
305,qasigiannguit,68.82,-51.19,15.8,66,75,5.82,GL,1604924913
306,motema,8.6,-11.03,86.77,55,85,1.45,SL,1604924914
307,port macquarie,-31.43,152.92,62.01,74,55,0.02,AU,1604924914
308,matagami,49.75,-77.63,48.2,93,1,9.17,CA,1604924914
309,saumur,47.33,-0.25,64.0,77,90,6.93,FR,1604924915
310,kaitangata,-46.28,169.85,52.0,74,9,0.83,NZ,1604924915
311,kalemie,-5.95,29.19,83.7,52,100,5.41,CD,1604924915
312,coquimbo,-29.95,-71.34,55.4,87,90,3.36,CL,1604924916
313,havre-saint-pierre,50.23,-63.6,30.2,92,90,5.82,CA,1604924916
314,ambon,-3.7,128.18,79.0,14,94,6.02,ID,1604924916
315,key west,24.56,-81.78,82.4,94,90,23.04,US,1604924770
316,rochegda,62.8,43.25,31.84,97,100,9.53,RU,1604924917
317,altamira,-3.2,-52.21,82.4,78,75,8.05,BR,1604924918
318,noormarkku,61.59,21.87,44.6,75,75,10.29,FI,1604924918
319,parainen,60.31,22.3,46.0,81,75,9.17,FI,1604924918
320,sumbe,-11.21,13.84,84.2,80,75,6.93,AO,1604924918
321,halifax,44.65,-63.57,48.2,93,90,12.75,CA,1604924733
322,lakes entrance,-37.88,147.98,55.99,92,0,3.31,AU,1604924919
323,songjianghe,42.19,127.48,19.94,83,14,3.94,CN,1604924920
324,gravdal,68.12,13.5,39.2,64,75,12.75,NO,1604924920
325,leninskoye,41.76,69.39,51.8,57,0,2.24,KZ,1604924920
326,nhulunbuy,-12.23,136.77,82.4,74,76,8.05,AU,1604924921
327,pangnirtung,66.15,-65.71,14.0,66,75,2.24,CA,1604924921
328,gazanjyk,39.24,55.52,60.31,32,0,4.27,TM,1604924921
329,nikolayevka,53.13,47.2,36.72,80,28,10.07,RU,1604924922
330,kaura namoda,12.59,6.58,89.56,16,13,10.36,NG,1604924922
331,mitsamiouli,-11.38,43.28,81.73,71,90,10.18,KM,1604924922
332,conceicao do araguaia,-8.26,-49.26,85.62,70,57,1.48,BR,1604924923
333,jaisalmer,26.91,70.92,84.78,14,0,4.47,IN,1604924923
334,atascadero,35.49,-120.67,46.0,86,1,3.36,US,1604924924
335,cabo san lucas,22.89,-109.91,70.0,81,1,1.99,MX,1604924706
336,tamisan,6.84,126.3,80.47,80,76,2.86,PH,1604924924
337,russkaya polyana,49.42,31.92,48.27,66,100,4.45,UA,1604924925
338,boyolangu,-8.12,111.89,78.39,82,97,5.77,ID,1604924925
339,shakawe,-18.37,21.85,103.41,13,7,4.47,BW,1604924925
340,dalvik,65.97,-18.53,37.4,73,90,5.82,IS,1604924925
341,the pas,53.83,-101.25,12.2,85,90,20.8,CA,1604924926
342,khvorostyanka,52.61,48.96,38.64,74,17,8.68,RU,1604924926
343,adrar,20.5,-10.07,91.51,11,51,12.57,MR,1604924927
344,kovdor,67.57,30.48,32.97,95,86,10.07,RU,1604924927
345,ponta delgada,37.73,-25.67,66.2,55,20,12.75,PT,1604924927
346,lewistown,40.6,-77.57,39.2,100,1,0.54,US,1604924928
347,neuquen,-38.95,-68.06,64.4,72,20,3.36,AR,1604924928
348,balaipungut,1.05,101.28,82.4,74,40,4.7,ID,1604924818
349,dauriya,49.93,116.87,20.75,98,67,2.26,RU,1604924929
350,mareeba,-17.0,145.43,78.8,65,90,8.05,AU,1604924929
351,senador jose porfirio,-2.59,-51.95,81.12,74,61,3.69,BR,1604924929
352,quelimane,-17.88,36.89,95.0,47,20,18.34,MZ,1604924930
353,kodiak,57.79,-152.41,42.8,35,1,27.51,US,1604924637
354,salekhard,66.53,66.6,18.41,97,100,3.51,RU,1604924930
355,mirabela,-16.26,-44.16,78.8,54,0,3.36,BR,1604924931
356,ivanava,52.15,25.54,48.02,73,71,4.25,BY,1604924931
357,goure,13.98,10.27,87.01,21,4,8.99,NE,1604924931
358,rio grande,-32.03,-52.1,68.0,77,90,14.99,BR,1604924925
359,yelizovo,53.19,158.38,21.2,67,93,11.18,RU,1604924932
360,masuguru,-11.37,38.42,102.0,22,96,7.47,TZ,1604924932
361,saint-pierre,-21.34,55.48,78.8,74,75,24.16,RE,1604924933
362,kolomak,49.84,35.3,51.94,56,83,5.06,UA,1604924933
363,konakovo,56.7,36.77,37.22,78,11,11.27,RU,1604924933
364,pacifica,37.61,-122.49,48.99,52,1,8.05,US,1604924838
365,gorontalo,0.54,123.06,76.41,79,56,4.05,ID,1604924934
366,lebyazhye,55.27,66.49,32.47,95,91,14.0,RU,1604924727
367,beloha,-25.17,45.05,103.75,10,10,12.95,MG,1604924935
368,greencastle,39.64,-86.86,57.2,76,40,5.82,US,1604924905
369,melville,40.79,-73.42,46.4,87,1,3.0,US,1604924935
370,pevek,69.7,170.31,18.66,93,100,7.14,RU,1604924936
371,kavaratti,10.57,72.64,84.27,73,45,7.96,IN,1604924860
372,asau,46.43,26.4,54.0,72,69,3.6,RO,1604924936
373,yagodnoye,62.55,149.67,-2.92,89,100,3.2,RU,1604924937
374,novikovo,51.15,37.89,49.69,61,51,6.87,RU,1604924937
375,atherton,53.52,-2.49,59.0,75,99,1.99,GB,1604924937
376,portland,45.52,-122.68,35.01,86,75,1.07,US,1604924766
377,xinqing,48.23,129.5,7.25,90,0,3.58,CN,1604924938
378,sulangan,11.14,123.72,83.21,75,66,3.89,PH,1604924939
379,otjiwarongo,-20.46,16.65,91.4,15,55,2.24,NA,1604924939
380,kendari,-3.94,122.5,77.77,83,97,3.8,ID,1604924939
381,dargaville,-35.93,173.88,51.31,92,74,4.65,NZ,1604924940
382,monticello,45.31,-93.79,64.0,77,90,2.91,US,1604924940
383,yartsevo,55.07,32.7,38.88,73,45,6.6,RU,1604924940
384,nyzhnya duvanka,49.58,38.17,53.19,53,77,5.3,UA,1604924941
385,shilka,51.85,116.03,23.54,96,38,5.97,RU,1604924941
386,broome,42.25,-75.83,48.2,66,1,1.54,US,1604924941
387,les cayes,18.2,-73.75,79.56,85,84,5.39,HT,1604924942
388,salina,38.84,-97.61,64.99,82,90,23.04,US,1604924823
389,scottsbluff,41.87,-103.67,28.4,86,90,4.7,US,1604924808
390,carutapera,-1.2,-46.02,86.88,62,67,10.63,BR,1604924943
391,mackay,-21.15,149.2,75.2,64,75,17.22,AU,1604924943
392,vallenar,-28.57,-70.76,67.82,49,0,3.6,CL,1604924944
393,nalut,30.33,10.85,75.94,25,0,13.62,LY,1604924944
394,luderitz,-26.65,15.16,72.16,34,0,37.27,NA,1604924944
395,burlington,39.88,-74.64,42.8,100,1,2.13,US,1604924764
396,najran,17.49,44.13,86.0,20,0,6.93,SA,1604924945
397,upernavik,72.79,-56.15,-1.64,81,88,10.87,GL,1604924946
398,nieuw amsterdam,5.88,-55.08,82.99,83,75,8.05,SR,1604924946
399,sumenep,-7.02,113.87,85.44,67,100,8.37,ID,1604924946
400,jiwani,25.05,61.74,80.26,77,1,14.58,PK,1604924947
401,esperance,-33.87,121.9,60.8,93,30,8.05,AU,1604924947
402,jiaojiang,28.68,121.44,55.0,59,0,1.01,CN,1604924948
403,carinhanha,-14.3,-43.77,81.66,57,87,5.53,BR,1604924948
404,adelaide,-34.93,138.6,78.01,40,0,4.7,AU,1604924742
405,gwanda,-20.93,29.0,99.28,16,23,4.52,ZW,1604924949
406,san fernando,15.03,120.69,80.6,83,75,2.24,PH,1604924949
407,taitung,22.76,121.14,69.8,68,75,11.41,TW,1604924949
408,sobolevo,54.43,31.9,39.88,69,48,6.53,RU,1604924950
409,shieli,44.17,66.75,48.83,49,76,9.51,KZ,1604924755
410,barahona,18.21,-71.1,73.4,100,40,3.22,DO,1604924950
411,samfya,-11.36,29.56,95.83,16,38,5.99,ZM,1604924951
412,maragogi,-9.01,-35.22,78.67,82,37,11.21,BR,1604924951
413,porto velho,-8.76,-63.9,77.0,94,75,3.36,BR,1604924951
414,sakakah,29.97,40.21,82.4,32,20,4.7,SA,1604924952
415,colborne,44.0,-77.88,53.01,93,1,1.12,CA,1604924952
416,soyo,-6.13,12.37,80.13,78,99,12.35,AO,1604924953
417,greymouth,-42.47,171.2,47.19,79,0,8.72,NZ,1604924953
418,christchurch,-43.53,172.63,51.01,81,93,6.93,NZ,1604924915
419,martapura,-3.42,114.85,80.6,88,91,4.7,ID,1604924954
420,sangolqui,-0.33,-78.45,53.6,71,75,2.24,EC,1604924717
421,dudinka,69.41,86.18,21.2,92,40,11.18,RU,1604924954
422,xacmaz,41.46,48.81,59.77,49,0,8.7,AZ,1604924955
423,los lunas,34.81,-106.73,50.0,42,40,6.93,US,1604924955
424,yingcheng,30.95,113.55,57.2,54,0,2.24,CN,1604924955
425,newport,51.59,-3.0,62.01,99,72,7.87,GB,1604924956
426,le port,-20.94,55.29,77.0,78,75,25.28,RE,1604924956
427,jayanca,-6.39,-79.82,60.8,87,0,11.41,PE,1604924957
428,balkanabat,39.51,54.37,58.87,44,0,2.1,TM,1604924958
429,bathsheba,13.22,-59.52,80.6,88,75,9.17,BB,1604924958
430,siavonga,-16.54,28.71,104.97,19,79,0.98,ZM,1604924958
431,koulamoutou,-1.13,12.47,80.6,78,75,2.62,GA,1604924959
432,pueblo nuevo,23.38,-105.38,51.46,80,0,5.28,MX,1604924959
433,medvedevo,56.63,47.8,35.6,64,40,13.42,RU,1604924959
434,jidong,45.22,131.08,16.05,85,34,8.3,CN,1604924960
435,mabaruma,8.2,-59.78,77.13,93,82,2.89,GY,1604924960
436,tarakan,3.3,117.63,83.48,80,58,7.63,ID,1604924960
437,saint george,37.1,-113.58,39.0,80,75,4.7,US,1604924861
438,soller,39.77,2.72,72.0,64,0,5.82,ES,1604924961
439,kahului,20.89,-156.47,73.99,69,20,4.7,US,1604924683
440,bom jesus,-9.07,-44.36,84.18,54,17,7.07,BR,1604924962
441,payakumbuh,-0.22,100.63,72.66,89,100,1.52,ID,1604924962
442,szaszvar,46.28,18.38,48.2,100,90,1.12,HU,1604924963
443,ushtobe,45.25,77.98,43.45,60,78,10.0,KZ,1604924963
444,troitskoye,52.98,84.68,37.98,76,91,17.72,RU,1604924964
445,bani,18.28,-70.33,75.2,100,75,5.28,DO,1604924964
446,barguzin,53.62,109.62,32.22,93,29,3.98,RU,1604924964
447,ambilobe,-13.2,49.05,95.31,31,96,1.52,MG,1604924965
448,yankton,42.87,-97.4,44.6,93,90,17.22,US,1604924805
449,susehri,40.16,38.09,60.84,33,0,3.42,TR,1604924966
450,sarakhs,36.54,61.16,60.8,55,39,4.7,IR,1604924966
451,zhangye,38.93,100.45,41.41,46,0,2.26,CN,1604924967
452,shimoda,34.67,138.95,58.35,66,17,11.48,JP,1604924967
453,san cristobal,7.77,-72.22,77.0,94,40,2.24,VE,1604924968
454,tilichiki,60.47,166.1,6.21,93,0,11.9,RU,1604924968
455,ancud,-41.87,-73.82,62.01,76,0,9.17,CL,1604924968
456,padang,-0.95,100.35,79.7,77,100,2.62,ID,1604924969
457,tecpatan,17.13,-93.3,64.4,93,75,0.78,MX,1604924969
458,vondrozo,-22.82,47.28,77.38,56,2,10.45,MG,1604924969
459,nuuk,64.18,-51.72,19.4,67,75,19.46,GL,1604924970
460,husavik,66.04,-17.34,37.4,79,90,5.82,IS,1604924970
461,pimentel,-6.84,-79.93,60.8,87,0,11.41,PE,1604924906
462,zlitan,32.47,14.57,71.4,49,32,11.97,LY,1604924971
463,barentu,15.11,37.59,91.89,24,13,6.22,ER,1604924971
464,jeremie,18.65,-74.12,79.95,74,93,3.53,HT,1604924972
465,kargasok,59.06,80.86,33.78,93,99,17.38,RU,1604924973
466,havelock,34.88,-76.9,66.99,93,90,4.7,US,1604924974
467,lavrentiya,65.58,-171.0,31.1,98,100,19.82,RU,1604924975
468,dali,25.7,100.18,54.39,69,36,2.46,CN,1604924975
469,muromtsevo,56.37,75.24,35.85,83,98,12.97,RU,1604924976
470,sao jose da coroa grande,-8.9,-35.15,79.63,80,31,11.3,BR,1604924976
471,nakamura,32.98,132.93,50.92,81,0,6.2,JP,1604924977
472,mount gambier,-37.83,140.77,69.8,56,78,6.93,AU,1604924977
473,qeshm,26.96,56.27,86.0,62,20,11.41,IR,1604924978
474,bonthe,7.53,-12.51,84.13,69,84,5.01,SL,1604924979
475,desterro,-7.29,-37.09,79.48,59,74,13.33,BR,1604924979
476,chernushka,56.51,56.08,32.9,94,100,14.54,RU,1604924979
477,ostrovnoy,68.05,39.51,32.38,95,79,19.3,RU,1604924980
478,ca mau,9.18,105.15,76.89,80,96,1.66,VN,1604924980
479,dingle,11.0,122.67,77.13,90,74,4.41,PH,1604924981
480,dzhebariki-khaya,62.22,135.8,-16.24,86,0,1.07,RU,1604924981
481,vrangel,42.73,133.08,31.35,81,5,9.42,RU,1604924981
482,puerto del rosario,28.5,-13.86,75.2,64,20,13.87,ES,1604924982
483,zambezi,-13.54,23.1,95.9,20,24,6.15,ZM,1604924983
484,acajutla,13.59,-89.83,66.99,100,29,4.65,SV,1604924871
485,bahia de caraquez,-0.6,-80.42,71.6,88,90,6.93,EC,1604924984
486,yerbogachen,61.28,108.01,37.27,81,100,12.15,RU,1604924984
487,ureshino,33.1,129.98,48.2,66,0,6.93,JP,1604924984
488,mafeteng,-29.82,27.24,77.0,41,75,11.41,LS,1604924985
489,maniitsoq,65.42,-52.9,22.28,87,100,27.11,GL,1604924985
490,makhinjauri,41.67,41.69,62.6,72,0,3.36,GE,1604924985
491,tianpeng,30.99,103.94,72.0,1,98,3.38,CN,1604924986
492,fonte boa,-2.5,-66.27,73.85,97,100,1.7,BR,1604924986
493,tabuk,17.42,121.44,74.08,88,100,5.84,PH,1604924987
494,mount pleasant,32.79,-79.86,69.01,94,40,8.05,US,1604924987
495,kindu,-2.95,25.95,80.96,88,94,2.46,CD,1604924987
496,dunedin,-45.87,170.5,52.0,74,68,1.81,NZ,1604924988
497,solnechnyy,50.72,136.63,11.8,85,92,2.57,RU,1604924988
498,raudeberg,61.99,5.14,50.0,83,98,4.38,NO,1604924989
499,campbellford,44.31,-77.8,53.01,100,20,2.68,CA,1604924989
500,cosala,24.41,-106.69,71.01,93,2,2.86,MX,1604924990
501,souillac,-20.52,57.52,78.8,65,75,13.87,MU,1604924990
502,marijampole,54.57,23.35,46.4,64,0,3.36,LT,1604924808
503,zielona gora,51.94,15.51,44.01,93,90,6.93,PL,1604924991
504,mingaora,34.78,72.36,63.91,28,74,3.36,PK,1604924992
505,daru,-9.08,143.21,80.02,82,100,16.69,PG,1604924992
506,cockburn town,21.46,-71.14,80.6,83,40,13.87,TC,1604924993
507,brae,60.4,-1.35,51.8,93,75,10.29,GB,1604924993
508,udachnyy,66.42,112.4,6.8,92,90,8.95,RU,1604924993
509,atar,20.52,-13.05,96.15,10,20,9.44,MR,1604924994
510,valka,57.78,26.01,45.0,92,60,7.0,LV,1604924994
511,luanda,-8.84,13.23,73.4,94,90,9.17,AO,1604924995
512,mulchen,-37.72,-72.23,53.6,93,20,12.75,CL,1604924995
513,pasighat,28.07,95.33,69.17,58,0,3.04,IN,1604924995
514,praia da vitoria,38.73,-27.07,64.99,68,20,18.86,PT,1604924996
515,belawan,3.78,98.68,78.8,94,20,4.7,ID,1604924997
516,lac du bonnet,50.25,-96.06,28.4,68,1,26.4,CA,1604924997
517,moerai,-22.43,-151.33,75.24,78,96,18.19,PF,1604924998
518,northam,51.03,-4.22,59.0,87,68,5.01,GB,1604924998
519,dhidhdhoo,6.88,73.1,84.51,73,88,11.03,MV,1604924999
520,marfino,55.7,37.38,37.0,69,40,13.42,RU,1604924999
521,sorochinsk,52.43,53.16,36.39,79,93,13.22,RU,1604924999
522,olafsvik,64.89,-23.71,43.27,79,98,18.28,IS,1604925000
523,cap-aux-meules,47.38,-61.86,44.6,93,100,13.87,CA,1604925000
524,juneau,58.3,-134.42,35.6,93,90,14.99,US,1604924703
525,plattsburgh,44.7,-73.45,48.0,93,1,5.3,US,1604925001
526,miri,4.41,114.01,78.8,94,40,8.05,MY,1604924903
527,arcachon,44.59,-1.05,64.99,77,0,3.36,FR,1604925002
528,datong,40.09,113.29,40.08,57,0,1.9,CN,1604925004
529,sao felix do xingu,-6.64,-51.99,87.57,58,100,3.42,BR,1604925005
530,bagotville,-28.98,153.42,62.01,93,75,4.7,AU,1604925007
531,findlay,41.04,-83.65,55.0,76,1,5.82,US,1604924712
532,novyy urgal,51.07,132.56,10.17,86,3,2.3,RU,1604925008
533,tabou,4.42,-7.35,83.1,72,58,7.94,CI,1604925009
534,dingli,35.86,14.38,71.01,64,20,8.05,MT,1604925009
535,karasuk,53.74,78.04,36.68,82,100,22.39,RU,1604925010
536,tingo maria,-9.29,-76.01,78.3,56,50,1.01,PE,1604925011
537,krasnoselkup,65.7,82.47,10.02,95,100,11.43,RU,1604925011
538,yumen,40.28,97.2,32.92,81,0,1.48,CN,1604925012
539,jiuquan,39.74,98.52,37.83,50,0,3.44,CN,1604925013
540,ankazoabo,-22.28,44.52,100.06,8,100,6.89,MG,1604925013
541,awjilah,29.11,21.29,74.98,38,16,13.78,LY,1604925014
542,tongliao,43.61,122.27,25.81,73,0,6.31,CN,1604925015
543,bilibino,68.05,166.44,-2.9,90,99,1.14,RU,1604925016
544,santa marta,11.24,-74.2,82.0,78,100,3.49,CO,1604925016
545,zhigalovo,54.81,105.16,30.11,95,16,1.34,RU,1604925017
546,shubarkuduk,49.14,56.49,40.5,69,0,10.49,KZ,1604925017
547,domoni,-12.26,44.53,80.73,74,97,7.85,KM,1604925018
548,ramygala,55.52,24.3,46.4,74,0,3.36,LT,1604925018
549,concordia,-31.39,-58.02,66.2,82,90,11.41,AR,1604924842
550,angoche,-16.23,39.91,84.97,64,0,17.4,MZ,1604925019
551,dunbar,38.36,-81.74,44.6,100,1,2.28,US,1604925003
552,cardston,49.2,-113.3,19.4,83,45,3.36,CA,1604924720
553,norman wells,65.28,-126.83,19.4,92,75,4.7,CA,1604925020
554,aranos,-24.13,19.12,87.48,21,40,3.89,NA,1604925021
555,owando,-0.48,15.9,83.8,69,50,2.13,CG,1604925022
556,codrington,-38.27,141.97,68.45,51,32,13.04,AU,1604925022
557,mehriz,31.59,54.43,69.8,32,0,4.7,IR,1604925023
558,ballina,-28.87,153.57,62.01,93,75,4.7,AU,1604925023
559,maningrida,-12.07,134.27,83.1,73,100,8.28,AU,1604925024
560,kaeo,-35.1,173.78,53.01,93,100,3.36,NZ,1604925024
561,sibiti,-3.68,13.35,76.1,93,100,4.27,CG,1604925024
562,xingcheng,40.62,120.72,44.76,55,0,6.35,CN,1604925025
563,panacan,9.25,118.41,80.6,88,20,4.7,PH,1604925025
564,byron bay,-28.65,153.62,62.01,93,75,4.7,AU,1604925026
565,richards bay,-28.78,32.04,74.93,74,89,14.07,ZA,1604925026
566,deputatskiy,69.3,139.9,-17.86,89,0,2.95,RU,1604925027
567,cap malheureux,-19.98,57.61,77.0,71,4,11.99,MU,1604925027
568,storforshei,66.4,14.52,37.99,93,75,2.24,NO,1604925028
569,lata,40.16,-8.33,66.0,83,14,1.01,PT,1604925028
570,touros,-5.2,-35.46,80.6,83,75,18.34,BR,1604924860
571,makakilo city,21.35,-158.09,78.8,83,20,3.36,US,1604925029
572,aswan,24.09,32.91,84.65,18,0,6.33,EG,1604925029
573,vao,-22.67,167.48,71.02,63,15,12.15,NC,1604925030
574,camocim,-2.9,-40.84,89.74,52,3,11.48,BR,1604925030
575,socorro,31.65,-106.3,62.6,42,20,11.41,US,1604925031
576,khani,41.96,42.96,66.2,45,0,5.82,GE,1604925031
577,mahanoro,-19.9,48.8,78.4,69,0,9.13,MG,1604925032
578,sterling,39.01,-77.43,50.0,93,90,3.36,US,1604925032
579,aksu,41.12,80.26,44.67,47,99,1.97,CN,1604925032
580,tartagal,-22.52,-63.8,75.2,69,98,11.41,AR,1604925033
581,catabola,-12.15,17.28,82.4,34,0,9.17,AO,1604925033
582,shitanjing,39.23,106.34,44.55,52,0,5.46,CN,1604925033
583,ulladulla,-35.35,150.47,55.0,93,40,4.7,AU,1604924897
584,bonfim,3.08,-59.95,82.36,69,3,0.51,BR,1604925034
585,moyale,3.52,39.06,80.35,49,74,12.26,KE,1604925034
586,sambava,-14.27,50.17,79.65,70,98,14.56,MG,1604925035
587,mayor pablo lagerenza,-19.93,-60.77,89.46,47,100,10.27,PY,1604925035
588,axim,4.87,-2.24,83.82,71,99,8.12,GH,1604925036
589,harper,4.38,-7.72,82.87,72,65,7.78,LR,1604925036
590,jiexiu,37.02,111.91,51.33,43,0,0.54,CN,1604925036
591,tura,25.52,90.22,67.8,91,0,3.33,IN,1604925037
592,anadyr,64.75,177.48,12.2,92,20,6.71,RU,1604925037
593,hami,42.8,93.45,44.13,49,5,8.1,CN,1604925038
594,port hedland,-20.32,118.57,78.8,65,0,12.75,AU,1604925038
595,jibuti,11.5,42.5,86.0,62,20,12.75,DJ,1604925038
596,kaiu,59.01,25.06,46.4,81,75,12.75,EE,1604925039
597,nemuro,43.32,145.57,36.25,84,100,6.06,JP,1604925039
598,sarkand,45.41,79.92,37.8,72,0,1.25,KZ,1604925040
599,aksarka,66.56,67.8,15.26,97,100,6.67,RU,1604925040
